[{"stationCode":"STP","lat":51.531437,"long":-0.126136},{"stationCode":"MGZB","lat":48.460226,"long":10.278707},{"stationCode":"MA","lat":48.3654307143927,"long":10.88547706604},{"stationCode":"BHF","lat":52.5104989,"long":13.4346995},{"stationCode":"BSPD","lat":52.5343152,"long":13.1989467},{"stationCode":"GSB","lat":52.5486327,"long":13.3904267},{"stationCode":"ESRT","lat":51.442281,"long":7.55896},{"stationCode":"HAGEN","lat":51.362747,"long":7.460249},{"stationCode":"WUPPV","lat":51.23351,"long":7.07237},{"stationCode":"DUSSEL","lat":51.220146,"long":6.793137},{"stationCode":"EENP","lat":51.304892,"long":7.343285},{"stationCode":"KSWE","lat":51.290526,"long":7.289681},{"stationCode":"KWO","lat":51.273839,"long":7.221483},{"stationCode":"WUPPH","lat":51.25433,"long":7.14939},{"stationCode":"KWBA","lat":51.267082,"long":7.195929},{"stationCode":"HAMM","lat":51.678078,"long":7.807821},{"stationCode":"EDO","lat":51.517896,"long":7.45929},{"stationCode":"ELUE","lat":51.61713,"long":7.52949},{"stationCode":"EPRN","lat":51.58833,"long":7.53933},{"stationCode":"EDD","lat":51.56754,"long":7.52855},{"stationCode":"EDKD","lat":51.547076,"long":7.510099},{"stationCode":"OBERH","lat":51.47512,"long":6.852038},{"stationCode":"OBERHS","lat":51.512222,"long":6.843611},{"stationCode":"WESEL","lat":51.655833,"long":6.627222},{"stationCode":"EM","lat":51.834283,"long":6.255718},{"stationCode":"DUISB","lat":51.4297785713316,"long":6.77590370178222},{"stationCode":"EUN","lat":51.5385828,"long":7.6953056},{"stationCode":"EHZW","lat":51.504767,"long":7.619647},{"stationCode":"EBEO","lat":51.598015,"long":7.757296},{"stationCode":"FFFM","lat":50.1071222,"long":8.6638338},{"stationCode":"HWOB","lat":52.429492,"long":10.788195},{"stationCode":"HANN","lat":52.3770401,"long":9.7416759},{"stationCode":"MINDEN","lat":52.290138,"long":8.934728},{"stationCode":"OEYNH","lat":52.205461,"long":8.796932},{"stationCode":"BIELEF","lat":52.029261,"long":8.532722},{"stationCode":"MANNHE","lat":49.479354,"long":8.468921},{"stationCode":"KARLSR","lat":48.9936223,"long":8.400743},{"stationCode":"RO","lat":48.476475,"long":7.946723},{"stationCode":"RF","lat":47.99789,"long":7.84134},{"stationCode":"BASELB","lat":47.56815,"long":7.6073},{"stationCode":"VIERS","lat":51.25516,"long":6.40388},{"stationCode":"KDUL","lat":51.257149,"long":6.33793},{"stationCode":"KBOI","lat":51.274323,"long":6.274591},{"stationCode":"KBRY","lat":51.294615,"long":6.241174},{"stationCode":"KN","lat":51.327184,"long":6.203225},{"stationCode":"NEUSS","lat":51.20444,"long":6.68468},{"stationCode":"MCGB","lat":51.196583,"long":6.446111},{"stationCode":"HZ","lat":50.870916,"long":6.094486},{"stationCode":"AW","lat":50.78036,"long":6.070715},{"stationCode":"AHBF","lat":50.7678,"long":6.091499},{"stationCode":"KOLN","lat":50.9432158,"long":6.9589214},{"stationCode":"BONN","lat":50.7320141646745,"long":7.09712505340576},{"stationCode":"KKD","lat":50.940874,"long":6.975001},{"stationCode":"KSB","lat":50.7939411,"long":7.2030017},{"stationCode":"KKO","lat":50.351085,"long":7.588649},{"stationCode":"FMZ","lat":50.001117,"long":8.25872},{"stationCode":"MUNCHH","lat":48.1402033359505,"long":11.558346748352},{"stationCode":"EDULH","lat":51.827927,"long":7.295756},{"stationCode":"MUNST","lat":51.956892,"long":7.635895},{"stationCode":"OSNH","lat":52.272851,"long":8.061781},{"stationCode":"RHEINE","lat":52.276299,"long":7.434255},{"stationCode":"LEER","lat":53.23165,"long":7.465283},{"stationCode":"EBOK","lat":51.66988,"long":7.45664},{"stationCode":"ESEM","lat":51.707885,"long":7.453396},{"stationCode":"ELDH","lat":51.76184,"long":7.43165},{"stationCode":"ELET","lat":51.8925,"long":7.187},{"stationCode":"ECMF","lat":51.939,"long":7.1642},{"stationCode":"ESEB","lat":51.692947,"long":7.454829},{"stationCode":"EHW","lat":51.9994672604096,"long":7.1215009689331},{"stationCode":"ELGD","lat":52.034924,"long":7.088538},{"stationCode":"EAHS","lat":52.079796120944,"long":7.01635837554931},{"stationCode":"EEPE","lat":52.18346,"long":7.03009},{"stationCode":"G","lat":52.21521,"long":7.022109},{"stationCode":"EBFT","lat":52.147384,"long":7.32934},{"stationCode":"ENBE","lat":52.022327,"long":7.562668},{"stationCode":"EABG","lat":52.05223,"long":7.481202},{"stationCode":"ENOW","lat":52.077618,"long":7.461706},{"stationCode":"EBGO","lat":52.118791,"long":7.397581},{"stationCode":"EMTE","lat":52.162444,"long":7.254423},{"stationCode":"EOP","lat":52.201703,"long":7.182643},{"stationCode":"BH","lat":52.309685595156,"long":7.15853691101074},{"stationCode":"BUENDE","lat":52.202075,"long":8.573876},{"stationCode":"WR","lat":53.16311,"long":7.3442},{"stationCode":"ENHF","lat":51.984987,"long":7.63861},{"stationCode":"LS","lat":52.594723,"long":11.854412},{"stationCode":"TS","lat":48.784084,"long":9.181635},{"stationCode":"TP","lat":48.71308,"long":9.41081},{"stationCode":"TGO","lat":48.700191,"long":9.651685},{"stationCode":"TU","lat":48.399015,"long":9.982165},{"stationCode":"FLB","lat":50.382498,"long":8.096112},{"stationCode":"KDFFH","lat":51.292009,"long":6.786836},{"stationCode":"FNAF","lat":50.0531710299286,"long":8.570237159729},{"stationCode":"BERHBL","lat":52.52503,"long":13.36946},{"stationCode":"EGRK","lat":52.123439,"long":7.376031},{"stationCode":"JENBAC","lat":47.38844,"long":11.77841},{"stationCode":"INNSB","lat":47.26328,"long":11.401},{"stationCode":"KUFST","lat":47.5831,"long":12.16568},{"stationCode":"ATN","lat":51.9213265245505,"long":6.57862722873687},{"stationCode":"AC","lat":52.2785,"long":4.977},{"stationCode":"AKM","lat":53.0463905334473,"long":5.84361124038696},{"stationCode":"AMR","lat":52.6377792358398,"long":4.73972225189209},{"stationCode":"AML","lat":52.3580551147461,"long":6.65388870239258},{"stationCode":"AMRN","lat":52.6438903808594,"long":4.76416683197022},{"stationCode":"APN","lat":52.1244430541992,"long":4.65777778625488},{"stationCode":"AMFS","lat":52.1748221374512,"long":5.40388870239258},{"stationCode":"AMF","lat":52.1538887023926,"long":5.37055540084839},{"stationCode":"RAI","lat":52.3372230529785,"long":4.89027786254883},{"stationCode":"ASA","lat":52.3466682434082,"long":4.91777801513672},{"stationCode":"ASD","lat":52.3788871765137,"long":4.90027761459351},{"stationCode":"ASS","lat":52.3888893127441,"long":4.83777761459351},{"stationCode":"ASDM","lat":52.3605537414551,"long":4.93111133575439},{"stationCode":"ASDZ","lat":52.338889,"long":4.872356},{"stationCode":"ANA","lat":52.8672218322754,"long":4.81111097335815},{"stationCode":"APD","lat":52.2091674804687,"long":5.97027778625488},{"stationCode":"APG","lat":53.3258135,"long":6.8619577},{"stationCode":"AKL","lat":51.8719444274902,"long":4.99277782440186},{"stationCode":"ARN","lat":51.5016670227051,"long":3.66916656494141},{"stationCode":"AH","lat":51.9850006103516,"long":5.89916658401489},{"stationCode":"AHP","lat":51.985279083252,"long":5.91944456100464},{"stationCode":"ASN","lat":52.9916648864746,"long":6.57083320617676},{"stationCode":"ASB","lat":52.3122215270996,"long":4.94694423675537},{"stationCode":"AHPR","lat":51.9880561828613,"long":5.94388866424561},{"stationCode":"VMW","lat":52.330134,"long":4.92975},{"stationCode":"ASDL","lat":52.3577766418457,"long":4.83388900756836},{"stationCode":"ALM","lat":52.37503,"long":5.21764},{"stationCode":"ALMB","lat":52.3941650390625,"long":5.2780556678772},{"stationCode":"ALMM","lat":52.3675003051758,"long":5.19027757644653},{"stationCode":"BRN","lat":52.2083320617676,"long":5.28083324432373},{"stationCode":"BF","lat":53.3608969,"long":6.5185581},{"stationCode":"BRD","lat":51.8547210693359,"long":4.5533332824707},{"stationCode":"BNC","lat":52.1399993896484,"long":5.59027767181396},{"stationCode":"BNN","lat":52.1613883972168,"long":5.59805536270142},{"stationCode":"BDM","lat":53.3068857,"long":6.593054},{"stationCode":"BK","lat":50.9474983215332,"long":5.78666687011719},{"stationCode":"BSD","lat":51.8994445800781,"long":5.19444465637207},{"stationCode":"BL","lat":52.8547210693359,"long":6.52111101150513},{"stationCode":"ALMP","lat":52.3766670227051,"long":5.24472236633301},{"stationCode":"BGN","lat":51.4938888549805,"long":4.29611110687256},{"stationCode":"BET","lat":51.5099983215332,"long":5.38916683197022},{"stationCode":"BV","lat":52.4783325195313,"long":4.65666675567627},{"stationCode":"BHV","lat":52.1300010681152,"long":5.20388889312744},{"stationCode":"BNZ","lat":52.128853,"long":5.60246},{"stationCode":"BR","lat":51.372501373291,"long":6.15500020980835},{"stationCode":"BLL","lat":52.404167175293,"long":4.62750005722046},{"stationCode":"BDG","lat":52.0813903808594,"long":4.7461109161377},{"stationCode":"BN","lat":52.2988891601562,"long":6.74805545806885},{"stationCode":"BSK","lat":52.0777778625488,"long":4.64694452285767},{"stationCode":"BSKS","lat":52.067658,"long":4.646186},{"stationCode":"BKG","lat":52.6949996948242,"long":5.23777770996094},{"stationCode":"BMR","lat":51.6445217676531,"long":5.93903303146362},{"stationCode":"BTL","lat":51.58433,"long":5.31912},{"stationCode":"BD","lat":51.5955543518066,"long":4.78000020980835},{"stationCode":"BDPB","lat":51.606388092041,"long":4.72083330154419},{"stationCode":"BKL","lat":52.17149,"long":4.9906},{"stationCode":"LLZM","lat":52.042222,"long":4.517222},{"stationCode":"BMN","lat":52.0911102294922,"long":6.14694452285767},{"stationCode":"BP","lat":53.2564547,"long":6.1446496},{"stationCode":"BDE","lat":50.8969459533691,"long":5.73666667938232},{"stationCode":"BNK","lat":52.0630569458008,"long":5.19444465637207},{"stationCode":"BSMZ","lat":52.2658348083496,"long":5.16305541992188},{"stationCode":"CPS","lat":51.9541664123535,"long":4.58416652679443},{"stationCode":"CAS","lat":52.5458335876465,"long":4.65861129760742},{"stationCode":"CVM","lat":50.8761100769043,"long":6.05972242355347},{"stationCode":"CO","lat":52.6636123657227,"long":6.73555564880371},{"stationCode":"CL","lat":51.9466667175293,"long":5.22694444656372},{"stationCode":"CK","lat":51.7266825879048,"long":5.87429523468017},{"stationCode":"DLN","lat":52.6941680908203,"long":6.75805568695068},{"stationCode":"DMNZ","lat":52.3302764892578,"long":4.95583343505859},{"stationCode":"DA","lat":52.4407702,"long":6.5759947},{"stationCode":"DMN","lat":52.34515,"long":4.967566},{"stationCode":"DTZ","lat":51.9908332824707,"long":4.36472225189209},{"stationCode":"DL","lat":52.4983329772949,"long":6.25861120223999},{"stationCode":"DEI","lat":53.1888115,"long":5.7281572},{"stationCode":"DDN","lat":52.2599983215332,"long":6.7161111831665},{"stationCode":"DT","lat":52.0066680908203,"long":4.35638904571533},{"stationCode":"DZ","lat":53.3336625,"long":6.9240797},{"stationCode":"DN","lat":51.4558334350586,"long":5.78888893127441},{"stationCode":"DV","lat":52.2574996948242,"long":6.16055536270142},{"stationCode":"DID","lat":51.933502,"long":6.1324106},{"stationCode":"DZW","lat":53.3320834,"long":6.9069092},{"stationCode":"DR","lat":52.0449981689453,"long":6.10305547714233},{"stationCode":"DTC","lat":51.9585962,"long":6.2962148},{"stationCode":"DLD","lat":52.1402778625488,"long":5.24277782440186},{"stationCode":"DDR","lat":51.8072204589844,"long":4.66833353042603},{"stationCode":"DDZD","lat":51.7900009155273,"long":4.67138910293579},{"stationCode":"DB","lat":52.0652770996094,"long":5.25861120223999},{"stationCode":"DRH","lat":52.4425010681152,"long":4.63805532455444},{"stationCode":"DTCH","lat":51.9591413,"long":6.2598521},{"stationCode":"DVC","lat":52.2502784729004,"long":6.21444463729858},{"stationCode":"DDRS","lat":51.801944732666,"long":4.71666669845581},{"stationCode":"DVNK","lat":52.1472206115723,"long":4.4563889503479},{"stationCode":"DRP","lat":53.1778086,"long":5.6347411},{"stationCode":"DVN","lat":51.9433326721191,"long":6.01472234725952},{"stationCode":"DVD","lat":52.3233337402344,"long":4.93638896942139},{"stationCode":"EC","lat":51.1005554199219,"long":5.87888908386231},{"stationCode":"EHS","lat":51.4511108398438,"long":5.45583343505859},{"stationCode":"DRON","lat":52.5344,"long":5.72089},{"stationCode":"ED","lat":52.0277786254883,"long":5.67305564880371},{"stationCode":"EDC","lat":52.0436096191406,"long":5.66833353042603},{"stationCode":"EEM","lat":53.458419,"long":6.832},{"stationCode":"EHV","lat":51.4433326721191,"long":5.48138904571533},{"stationCode":"EST","lat":51.9169425964355,"long":5.85500001907349},{"stationCode":"EMN","lat":52.7900009155273,"long":6.89944458007812},{"stationCode":"EKZ","lat":52.6991653442383,"long":5.28638887405396},{"stationCode":"ES","lat":52.2224998474121,"long":6.8899998664856},{"stationCode":"EML","lat":52.3016662597656,"long":5.61472225189209},{"stationCode":"ESE","lat":52.2213897705078,"long":6.95111131668091},{"stationCode":"ETN","lat":51.5750007629395,"long":4.63583326339722},{"stationCode":"EDN","lat":50.7719459533691,"long":5.71000003814697},{"stationCode":"ESK","lat":52.2374992370605,"long":6.83888912200928},{"stationCode":"ALMO","lat":52.4033317565918,"long":5.30055570602417},{"stationCode":"AHZ","lat":51.9550018310547,"long":5.85194444656372},{"stationCode":"AVAT","lat":52.1927795410156,"long":5.43388891220093},{"stationCode":"APDO","lat":52.2152786254883,"long":6.00444459915161},{"stationCode":"BKF","lat":52.6961097717285,"long":5.25277757644653},{"stationCode":"ASHD","lat":52.29844,"long":4.95972},{"stationCode":"FN","lat":53.1824488,"long":5.5483094},{"stationCode":"APDM","lat":52.2052764892578,"long":6.00055551528931},{"stationCode":"EGHM","lat":50.8960498196442,"long":6.0602474212646396},{"stationCode":"ASSP","lat":52.35526,"long":4.94651},{"stationCode":"BHDV","lat":51.832222,"long":4.878056},{"stationCode":"GERP","lat":53.20480027,"long":6.5854178},{"stationCode":"GDR","lat":51.93074,"long":6.3486},{"stationCode":"HMBV","lat":51.4622230529785,"long":5.60722208023071},{"stationCode":"GDM","lat":51.88301,"long":5.27127},{"stationCode":"GP","lat":51.4197235107422,"long":5.55055570602417},{"stationCode":"GLN","lat":50.9669456481934,"long":5.84305572509766},{"stationCode":"LUT","lat":50.9755554199219,"long":5.82472229003906},{"stationCode":"GZ","lat":51.583610534668,"long":4.92611122131348},{"stationCode":"GS","lat":51.4980545043945,"long":3.89055562019348},{"stationCode":"GO","lat":52.2302780151367,"long":6.58444452285767},{"stationCode":"GR","lat":51.8338890075684,"long":4.96833324432373},{"stationCode":"GDG","lat":52.0149993896484,"long":4.7408332824707},{"stationCode":"GD","lat":52.0175018310547,"long":4.70444440841675},{"stationCode":"GBG","lat":52.6091651916504,"long":6.67583322525024},{"stationCode":"GBR","lat":52.2186126708984,"long":6.97444438934326},{"stationCode":"GN","lat":53.2105560302734,"long":6.56472206115723},{"stationCode":"GNN","lat":53.2301469,"long":6.5563172},{"stationCode":"GW","lat":53.0888900756836,"long":5.82250022888184},{"stationCode":"GK","lat":53.2557403255735,"long":6.30977869033813},{"stationCode":"HLMS","lat":52.3827781677246,"long":4.67305564880371},{"stationCode":"GVM","lat":52.0905570983887,"long":4.36944437026978},{"stationCode":"GVMW","lat":52.0538902282715,"long":4.3086109161377},{"stationCode":"GV","lat":52.0697212219238,"long":4.32250022888184},{"stationCode":"GVC","lat":52.0802764892578,"long":4.32499980926514},{"stationCode":"HLM","lat":52.3877792358398,"long":4.63833332061768},{"stationCode":"HRNOVT","lat":53.170071,"long":6.592202},{"stationCode":"HDG","lat":53.2187783,"long":5.934543},{"stationCode":"HDB","lat":52.5727767944336,"long":6.62861108779907},{"stationCode":"HD","lat":52.3375015258789,"long":5.61972236633301},{"stationCode":"GND","lat":51.8305549621582,"long":4.83583354949951},{"stationCode":"HLG","lat":53.1704205,"long":5.4251932},{"stationCode":"HRN","lat":53.1761093139648,"long":6.61722230911255},{"stationCode":"HLGH","lat":53.174917,"long":5.4112885},{"stationCode":"HMBH","lat":51.47068,"long":5.70177},{"stationCode":"HMH","lat":51.46794,"long":5.63085},{"stationCode":"HRY","lat":52.9352760314941,"long":5.94388866424561},{"stationCode":"HAD","lat":52.3591651916504,"long":4.60666656494141},{"stationCode":"HDRZ","lat":52.9324989318848,"long":4.76416683197022},{"stationCode":"HR","lat":52.9613876342773,"long":5.91416645050049},{"stationCode":"HWD","lat":52.6697235107422,"long":4.82277774810791},{"stationCode":"HRL","lat":50.8908348083496,"long":5.97499990463257},{"stationCode":"HZE","lat":51.3849983215332,"long":5.56944465637207},{"stationCode":"HLO","lat":52.5994453430176,"long":4.70055532455444},{"stationCode":"HNO","lat":52.4272232055664,"long":6.22111129760742},{"stationCode":"HDR","lat":52.9552764892578,"long":4.76111125946045},{"stationCode":"HGLO","lat":52.2688903808594,"long":6.81944465637207},{"stationCode":"HM","lat":51.4755554199219,"long":5.66194438934326},{"stationCode":"HMN","lat":51.9222129,"long":5.6737254},{"stationCode":"HGL","lat":52.2616653442383,"long":6.79388904571533},{"stationCode":"HK","lat":52.4952774047852,"long":4.68694448471069},{"stationCode":"HT","lat":51.69048,"long":5.29362},{"stationCode":"HTO","lat":51.700553894043,"long":5.3183331489563},{"stationCode":"HVS","lat":52.2258338928223,"long":5.18194437026978},{"stationCode":"HNP","lat":52.9464903,"long":5.423063},{"stationCode":"HVSM","lat":52.2380561828613,"long":5.17388868331909},{"stationCode":"HB","lat":50.9055557250977,"long":5.93055534362793},{"stationCode":"HOR","lat":52.1777763366699,"long":5.17916679382324},{"stationCode":"HON","lat":52.2838897705078,"long":6.42027759552002},{"stationCode":"HIL","lat":52.3025016784668,"long":4.56555557250977},{"stationCode":"HGV","lat":52.7338905334473,"long":6.47361087799072},{"stationCode":"HGZ","lat":53.1598181316756,"long":6.77075386047363},{"stationCode":"HFD","lat":52.2933349609375,"long":4.70055532455444},{"stationCode":"HKS","lat":52.6905555725098,"long":5.18388891220093},{"stationCode":"HTNC","lat":52.01701,"long":5.17949},{"stationCode":"HNK","lat":52.6536102294922,"long":5.08555555343628},{"stationCode":"HN","lat":52.6447219848633,"long":5.05555534362793},{"stationCode":"EGH","lat":50.8905563354492,"long":6.04500007629395},{"stationCode":"HRT","lat":51.4263877868652,"long":6.04222202301025},{"stationCode":"HTN","lat":52.03402,"long":5.16821},{"stationCode":"SGL","lat":50.8733329772949,"long":5.79722213745117},{"stationCode":"KPN","lat":52.5597229003906,"long":5.92166662216186},{"stationCode":"BZL","lat":51.4808349609375,"long":3.95611119270325},{"stationCode":"KRD","lat":50.8616676330566,"long":6.05749988555908},{"stationCode":"KTR","lat":51.9313869,"long":5.5833465},{"stationCode":"KPNZ","lat":52.5331,"long":5.91309},{"stationCode":"KBK","lat":52.1780548095703,"long":6.08361101150513},{"stationCode":"KMR","lat":50.8663902282715,"long":5.8905553817749},{"stationCode":"KZ","lat":52.458610534668,"long":4.80555534362793},{"stationCode":"ZZS","lat":52.469165802002,"long":4.80499982833862},{"stationCode":"KMW","lat":52.9028197,"long":5.4106913},{"stationCode":"KBD","lat":51.4333343505859,"long":4.11694431304932},{"stationCode":"KMA","lat":52.49511,"long":4.75417},{"stationCode":"KW","lat":53.1617362,"long":6.7220882},{"stationCode":"KRG","lat":51.4650001525879,"long":4.03722238540649},{"stationCode":"YPB","lat":52.0552787780762,"long":4.39222240447998},{"stationCode":"LAA","lat":52.0786094665527,"long":4.34277772903442},{"stationCode":"ZLW","lat":51.6911125183105,"long":4.66305541992188},{"stationCode":"LDL","lat":52.1469459533691,"long":4.49249982833862},{"stationCode":"LDM","lat":51.8947219848633,"long":5.09138870239258},{"stationCode":"LW","lat":53.1958351135254,"long":5.79222202301025},{"stationCode":"HDE","lat":52.4091682,"long":5.893611},{"stationCode":"LWC","lat":53.2021808,"long":5.8422968},{"stationCode":"LEDN","lat":52.1661109924316,"long":4.48166656494141},{"stationCode":"LLS","lat":52.5077781677246,"long":5.47277784347534},{"stationCode":"LTV","lat":52.01188,"long":6.59641},{"stationCode":"LC","lat":52.1666679382324,"long":6.42638874053955},{"stationCode":"HWZB","lat":52.385935,"long":4.747165},{"stationCode":"LP","lat":53.3347145,"long":6.7472625},{"stationCode":"HRLW","lat":50.896667,"long":5.952222},{"stationCode":"LTN","lat":52.085277557373,"long":5.62444448471069},{"stationCode":"EMNZ","lat":52.7488663746914,"long":6.87478065490722},{"stationCode":"MRN","lat":52.0641670227051,"long":5.36999988555908},{"stationCode":"MAS","lat":52.1352767944336,"long":5.03361129760742},{"stationCode":"MT","lat":50.8502769470215,"long":5.70555543899536},{"stationCode":"MTR","lat":50.8386116027832,"long":5.71722221374512},{"stationCode":"MG","lat":53.1296368,"long":5.7131996},{"stationCode":"MRB","lat":52.5094451904297,"long":6.57527780532837},{"stationCode":"MTH","lat":53.1607232,"long":6.7402989},{"stationCode":"MZ","lat":51.3037623603504,"long":5.63034296035766},{"stationCode":"HGLG","lat":52.261667,"long":6.773611},{"stationCode":"MES","lat":50.882879392551,"long":5.75099945068359},{"stationCode":"MP","lat":52.6908340454102,"long":6.19750022888184},{"stationCode":"MDB","lat":51.4947204589844,"long":3.61722230911255},{"stationCode":"HBZM","lat":51.82944,"long":4.81556},{"stationCode":"MMLH","lat":51.766262,"long":5.879133},{"stationCode":"MTN","lat":50.87087,"long":5.71774},{"stationCode":"AMPO","lat":52.342778,"long":5.151944},{"stationCode":"NML","lat":51.861811,"long":5.859686},{"stationCode":"NDB","lat":52.2802772521973,"long":5.15694427490234},{"stationCode":"NA","lat":52.7186126708984,"long":6.84861087799072},{"stationCode":"NWK","lat":51.9652786254883,"long":4.61694431304932},{"stationCode":"NSCH","lat":53.1844,"long":7.19937},{"stationCode":"NVP","lat":52.2588882446289,"long":4.64555549621582},{"stationCode":"NS","lat":52.3708343505859,"long":5.78527784347534},{"stationCode":"NH","lat":50.9194450378418,"long":5.89277791976929},{"stationCode":"NMH","lat":51.8269462585449,"long":5.86749982833862},{"stationCode":"NKK","lat":52.2222213745117,"long":5.49388885498047},{"stationCode":"NM","lat":51.8436126708984,"long":5.85222244262695},{"stationCode":"NVD","lat":52.366111,"long":6.462},{"stationCode":"NMD","lat":51.8241653442383,"long":5.79555559158325},{"stationCode":"NMGO","lat":51.8273,"long":5.822722},{"stationCode":"OBD","lat":52.6780548095703,"long":4.90722227096558},{"stationCode":"OT","lat":51.5822219848633,"long":5.19416666030884},{"stationCode":"ODZ","lat":52.3063888549805,"long":6.93472242355347},{"stationCode":"OST","lat":52.3347206115723,"long":6.11305570602417},{"stationCode":"OMN","lat":52.5094451904297,"long":6.41583347320557},{"stationCode":"OTB","lat":51.9949989318848,"long":5.84000015258789},{"stationCode":"HVL","lat":52.16652,"long":5.45718},{"stationCode":"OP","lat":51.9261615,"long":5.6371145},{"stationCode":"O","lat":51.7655563354492,"long":5.53222227096558},{"stationCode":"OW","lat":51.758056640625,"long":5.50555562973022},{"stationCode":"SDTB","lat":51.829722,"long":4.743333},{"stationCode":"ODB","lat":51.587776184082,"long":4.53333330154419},{"stationCode":"PMW","lat":52.4965906325416,"long":4.93562936782836},{"stationCode":"OVN","lat":52.3911094665527,"long":4.6061110496521},{"stationCode":"RSW","lat":52.039722442627,"long":4.31916666030884},{"stationCode":"PMO","lat":52.5113906860352,"long":4.96833324432373},{"stationCode":"RTA","lat":51.9519462585449,"long":4.55361127853394},{"stationCode":"PMR","lat":52.5030555725098,"long":4.95361089706421},{"stationCode":"PT","lat":52.2649993896484,"long":5.57527780532837},{"stationCode":"RAT","lat":52.3916664123535,"long":6.27750015258789},{"stationCode":"RVS","lat":51.7941665649414,"long":5.63583326339722},{"stationCode":"RHN","lat":51.958610534668,"long":5.57833337783814},{"stationCode":"RV","lat":51.2832191665301,"long":6.07895851135253},{"stationCode":"RH","lat":52.0101,"long":6.0314},{"stationCode":"AMRI","lat":52.3419456481934,"long":6.66666650772095},{"stationCode":"RB","lat":51.422779083252,"long":4.16111087799072},{"stationCode":"RM","lat":51.1930541992188,"long":5.9941668510437},{"stationCode":"RS","lat":51.7147216796875,"long":5.36805534362793},{"stationCode":"RD","lat":53.421262,"long":6.7587},{"stationCode":"RSD","lat":51.5402793884277,"long":4.45833349227905},{"stationCode":"RTB","lat":51.9202766418457,"long":4.48888874053955},{"stationCode":"RTD","lat":51.9249992370605,"long":4.46888875961304},{"stationCode":"RTN","lat":51.9422225952148,"long":4.48166656494141},{"stationCode":"RTZ","lat":51.9044456481934,"long":4.51027774810791},{"stationCode":"RTST","lat":51.8938903808594,"long":4.51972198486328},{"stationCode":"RL","lat":52.0810888,"long":6.4492656},{"stationCode":"RSN","lat":52.3122215270996,"long":6.52027797698975},{"stationCode":"RLB","lat":51.8800010681152,"long":4.53138875961304},{"stationCode":"SPTN","lat":52.4338874816895,"long":4.63250017166138},{"stationCode":"SPTZ","lat":52.4197235107422,"long":4.63138866424561},{"stationCode":"SPM","lat":53.1589183,"long":6.7955648},{"stationCode":"SWD","lat":53.29113,"long":6.5404},{"stationCode":"LG","lat":50.8963890075684,"long":6.01916646957398},{"stationCode":"SGN","lat":52.7844429016113,"long":4.80527782440186},{"stationCode":"SDA","lat":53.1655362,"long":6.9777775},{"stationCode":"SDM","lat":51.9212438128032,"long":4.4089937210083},{"stationCode":"SN","lat":50.9391670227051,"long":5.87444448471069},{"stationCode":"SOG","lat":50.856388092041,"long":5.87222242355347},{"stationCode":"SHL","lat":52.3094444274902,"long":4.76194429397583},{"stationCode":"STD","lat":51.0016670227051,"long":5.85861110687256},{"stationCode":"SDT","lat":51.8297233581543,"long":4.77833318710327},{"stationCode":"SK","lat":53.0328688,"long":5.6523969},{"stationCode":"ST","lat":52.1733322143555,"long":5.30999994277954},{"stationCode":"SD","lat":52.1836128234863,"long":5.30000019073486},{"stationCode":"HVSP","lat":52.2161102294922,"long":5.18722200393677},{"stationCode":"STZ","lat":52.1652793884277,"long":5.30305576324463},{"stationCode":"SBK","lat":50.94327,"long":5.850529},{"stationCode":"SKND","lat":53.0409319,"long":5.6631808},{"stationCode":"STV","lat":52.8865535,"long":5.3600212},{"stationCode":"STM","lat":53.3262092,"long":6.6875551},{"stationCode":"SWK","lat":52.7915109924316,"long":6.11455576324463},{"stationCode":"SRN","lat":51.0613899230957,"long":5.86305570602417},{"stationCode":"SM","lat":51.23582,"long":6.03228},{"stationCode":"TG","lat":51.33894,"long":6.14253},{"stationCode":"TBG","lat":51.9224549,"long":6.3642466},{"stationCode":"TBU","lat":51.564998626709,"long":5.05111122131348},{"stationCode":"TL","lat":51.8894462585449,"long":5.42222213745117},{"stationCode":"TB","lat":51.5605545043945,"long":5.08361101150513},{"stationCode":"TBR","lat":51.5736122131348,"long":4.99444437026978},{"stationCode":"TWL","lat":52.2377777099609,"long":6.09861087799072},{"stationCode":"TPSW","lat":51.8738899230957,"long":5.39222240447998},{"stationCode":"SSH","lat":52.215278,"long":4.517222},{"stationCode":"UTVR","lat":52.078889,"long":5.121667},{"stationCode":"UTLR","lat":52.09896,"long":5.06523},{"stationCode":"UTZL","lat":52.103055,"long":5.09},{"stationCode":"UTT","lat":52.1000753,"long":5.0439547},{"stationCode":"UTG","lat":52.5216674804687,"long":4.70166683197022},{"stationCode":"UHZ","lat":53.4099568,"long":6.6748869},{"stationCode":"UHM","lat":53.4145845,"long":6.7202975},{"stationCode":"UST","lat":53.4014742,"long":6.6093776},{"stationCode":"UTO","lat":52.1100006103516,"long":5.12472200393677},{"stationCode":"UT","lat":52.0888900756836,"long":5.11027765274048},{"stationCode":"UTLN","lat":52.0655555725098,"long":5.14416646957397},{"stationCode":"UTM","lat":52.087776184082,"long":5.13138866424561},{"stationCode":"VNDC","lat":52.0200004577637,"long":5.54861116409302},{"stationCode":"VNDW","lat":52.0280570983887,"long":5.53138875961304},{"stationCode":"VK","lat":50.8697204589844,"long":5.83222198486328},{"stationCode":"VSV","lat":51.937257,"long":6.458839},{"stationCode":"VDM","lat":53.10324,"long":6.88475},{"stationCode":"KLP","lat":52.0458335876465,"long":5.57388877868652},{"stationCode":"FWD","lat":53.2351834,"long":5.9886615},{"stationCode":"VP","lat":51.9947204589844,"long":5.98027801513672},{"stationCode":"VL","lat":51.3636093139648,"long":6.17277765274048},{"stationCode":"VRY","lat":51.526568099007,"long":6.01417779922485},{"stationCode":"VLB","lat":51.59193,"long":5.99714},{"stationCode":"VTN","lat":52.1030540466309,"long":5.01083326339722},{"stationCode":"VS","lat":51.4458351135254,"long":3.59527778625488},{"stationCode":"VSS","lat":51.4647216796875,"long":3.59527778625488},{"stationCode":"VH","lat":52.2244453430176,"long":4.4844446182251},{"stationCode":"VDL","lat":50.8872222900391,"long":5.93027782440186},{"stationCode":"VB","lat":52.0666656494141,"long":4.3594446182251},{"stationCode":"VST","lat":52.1252784729004,"long":4.43249988555908},{"stationCode":"VD","lat":52.1071949,"long":6.3170457},{"stationCode":"VZ","lat":52.40203,"long":6.60041},{"stationCode":"VHP","lat":52.4571921,"long":6.5696679},{"stationCode":"VG","lat":51.6555557250977,"long":5.29194450378418},{"stationCode":"VEM","lat":52.1575012207031,"long":6.14361095428467},{"stationCode":"WADN","lat":52.0550003051758,"long":4.64833354949951},{"stationCode":"WAD","lat":52.0441665649414,"long":4.6497220993042},{"stationCode":"WADT","lat":52.02725,"long":4.6491},{"stationCode":"WFM","lat":53.3908431,"long":6.5671364},{"stationCode":"WT","lat":51.2486114501953,"long":5.70361089706421},{"stationCode":"WP","lat":52.3127784729004,"long":5.04305553436279},{"stationCode":"WL","lat":51.9578065,"long":6.213844},{"stationCode":"WTV","lat":51.96286,"long":5.9695},{"stationCode":"WZ","lat":52.4541664123535,"long":6.00250005722046},{"stationCode":"WDN","lat":52.3613891601562,"long":6.59166669845581},{"stationCode":"WS","lat":53.1392377,"long":7.035101},{"stationCode":"WSM","lat":53.3300994,"long":6.5202905},{"stationCode":"WW","lat":51.9677307,"long":6.7155181},{"stationCode":"WWW","lat":51.97453,"long":6.70417},{"stationCode":"WD","lat":52.0849990844727,"long":4.89361095428467},{"stationCode":"WF","lat":52.0055541992188,"long":5.7936110496521},{"stationCode":"WV","lat":52.8808326721191,"long":6.00361108779907},{"stationCode":"WK","lat":52.9724864,"long":5.4564285},{"stationCode":"WM","lat":52.4891662597656,"long":4.79222202301025},{"stationCode":"WC","lat":51.8116683959961,"long":5.73083353042603},{"stationCode":"WH","lat":52.3902778625488,"long":6.1405553817749},{"stationCode":"IJT","lat":53.0146614,"long":5.6160801},{"stationCode":"ZDK","lat":52.4566650390625,"long":4.82027769088745},{"stationCode":"ZD","lat":52.4388885498047,"long":4.81361103057861},{"stationCode":"ZBM","lat":51.8088874816895,"long":5.26333332061768},{"stationCode":"ZVT","lat":52.3752784729004,"long":4.53277778625488},{"stationCode":"ZA","lat":51.920056,"long":5.7228408},{"stationCode":"ZV","lat":51.9230537414551,"long":6.07194423675537},{"stationCode":"ZVB","lat":51.64042,"long":4.60904},{"stationCode":"ZTMO","lat":52.0463905334473,"long":4.49277782440186},{"stationCode":"ZTM","lat":52.0475006103516,"long":4.47722244262695},{"stationCode":"ZB","lat":53.1596122800056,"long":6.8679141998291},{"stationCode":"ZH","lat":53.2486292,"long":6.4062361},{"stationCode":"ZP","lat":52.1452789306641,"long":6.19416666030884},{"stationCode":"DWE","lat":53.24817,"long":6.03463},{"stationCode":"ZL","lat":52.5047225952148,"long":6.09194421768188},{"stationCode":"ZWD","lat":51.814998626709,"long":4.64166688919067},{"stationCode":"BASELS","lat":47.5474,"long":7.58956},{"stationCode":"ZUE","lat":47.37819,"long":8.5392},{"stationCode":"BADENZ","lat":47.47638,"long":8.30772},{"stationCode":"LILLEE","lat":50.639444,"long":3.074722},{"stationCode":"PARIS","lat":48.87977,"long":2.35575},{"stationCode":"ACDG","lat":49.004048,"long":2.571133},{"stationCode":"AVTGV","lat":43.92194,"long":4.78604},{"stationCode":"AIXTGV","lat":43.5228190773429,"long":5.44531345367431},{"stationCode":"MARNE","lat":48.86826,"long":2.78218},{"stationCode":"CHAMB","lat":45.57127,"long":5.91953},{"stationCode":"ALBERT","lat":45.67302,"long":6.38306},{"stationCode":"MOUT","lat":45.48664,"long":6.53105},{"stationCode":"AIME","lat":45.55438,"long":6.64869},{"stationCode":"LANDRY","lat":45.57414,"long":6.73378},{"stationCode":"BOURG","lat":45.61918,"long":6.77167},{"stationCode":"MARS","lat":43.30381,"long":5.38195},{"stationCode":"VALTGV","lat":44.9278,"long":4.89321},{"stationCode":"BRUSN","lat":50.8605262,"long":4.3617873},{"stationCode":"BRUSC","lat":50.8454658,"long":4.3571135},{"stationCode":"BRUSZ","lat":50.8350108,"long":4.3345957},{"stationCode":"FBNL","lat":50.896389,"long":4.481943},{"stationCode":"ATW","lat":51.2161,"long":4.42122},{"stationCode":"ATWLB","lat":51.2449375,"long":4.4251543},{"stationCode":"LKR","lat":51.2816099,"long":4.4341227},{"stationCode":"ANDD","lat":51.261686,"long":4.4274315},{"stationCode":"NDKP","lat":51.3573,"long":4.63273},{"stationCode":"BERCH","lat":51.2001783,"long":4.4327702},{"stationCode":"FNZD","lat":51.19785,"long":4.39027},{"stationCode":"ESN","lat":51.46261,"long":4.45129},{"stationCode":"GWD","lat":51.4277061,"long":4.4633962},{"stationCode":"FKTH","lat":51.3909989,"long":4.4668202},{"stationCode":"GKT","lat":51.37867,"long":4.46722},{"stationCode":"MID","lat":51.364828,"long":4.4604308},{"stationCode":"LKP","lat":51.31362,"long":4.43262},{"stationCode":"MARIA","lat":51.29126,"long":4.43495},{"stationCode":"MECH","lat":51.01786,"long":4.48306},{"stationCode":"FRP","lat":51.07716,"long":4.28273},{"stationCode":"FMB","lat":51.09063,"long":4.36057},{"stationCode":"FSV","lat":51.08115,"long":4.32551},{"stationCode":"FOE","lat":51.18285,"long":4.34831},{"stationCode":"LKM","lat":51.13624,"long":4.33828},{"stationCode":"SCHLL","lat":51.12555,"long":4.34023},{"stationCode":"LNI","lat":51.11154,"long":4.33845},{"stationCode":"FHS","lat":50.930555,"long":5.3275},{"stationCode":"GDP","lat":50.910278,"long":5.419722},{"stationCode":"FIE","lat":50.868333,"long":5.509167},{"stationCode":"FTG","lat":50.784167,"long":5.473056},{"stationCode":"LEUVEN","lat":50.88136,"long":4.71568},{"stationCode":"LUIK","lat":50.62436,"long":5.56648},{"stationCode":"LUIKP","lat":50.64648,"long":5.57072},{"stationCode":"LUIKJ","lat":50.64051,"long":5.56197},{"stationCode":"LHS","lat":50.66076,"long":5.62231},{"stationCode":"BLTM","lat":50.69301,"long":5.59983},{"stationCode":"LSL","lat":50.69822,"long":5.56848},{"stationCode":"LGL","lat":50.750277,"long":5.535278},{"stationCode":"BRESSX","lat":50.643829,"long":5.6112542},{"stationCode":"FVS","lat":50.73781,"long":5.69232},{"stationCode":"FLK","lat":51.107222,"long":3.985833},{"stationCode":"LSW","lat":51.143333,"long":4.068889},{"stationCode":"LLB","lat":51.150833,"long":4.088332},{"stationCode":"FSN","lat":51.171944,"long":4.144167},{"stationCode":"FNU","lat":51.185556,"long":4.185832},{"stationCode":"FBR","lat":51.208056,"long":4.259444},{"stationCode":"LM","lat":51.210556,"long":4.286667},{"stationCode":"LZD","lat":51.214167,"long":4.33}]